[
  {
    "name": "Bell Rock Lighthouse",
    "lat": "56.4341666700",
    "lng": "-2.3872222220",
    "category": "Seven Wonders of the Industrial World"
  },
  {
    "name": "Brooklyn Bridge",
    "lat": "40.7055555600",
    "lng": "-73.9963888900",
    "category": "Seven Wonders of the Industrial World"
  },
  {
    "name": "Catacombs of Kom el Shoqafa",
    "lat": "31.1785580000",
    "lng": "29.8929540000",
    "category": "Medieval"
  },
  {
    "name": "Channel Tunnel",
    "lat": "51.0125000000",
    "lng": "1.5041000000",
    "category": "Civil"
  },
  {
    "name": "Chichen Itza",
    "lat": "20.6827777800",
    "lng": "-88.5686111100",
    "category": "New 7 Wonders Foundation"
  },
  {
    "name": "Christ the Redeemer (statue)",
    "lat": "-21.0480555600",
    "lng": "-43.2105555600",
    "category": "New 7 Wonders Foundation"
  },
  {
    "name": "CN Tower",
    "lat": "43.6425000000",
    "lng": "-78.6130555600",
    "category": "Civil"
  },
  {
    "name": "Colosseum",
    "lat": "41.8900000000",
    "lng": "12.4922222200",
    "category": "Medieval"
  },
  {
    "name": "Colossus of Rhodes",
    "lat": "36.4511000000",
    "lng": "28.2278000000",
    "category": "Ancient"
  },
  {
    "name": "Empire State Building",
    "lat": "40.7483333300",
    "lng": "-73.9855555600",
    "category": "Civil"
  },
  {
    "name": "First Transcontinental Railroad",
    "lat": "41.2763888900",
    "lng": "95.8666666700",
    "category": "Seven Wonders of the Industrial World"
  },
  {
    "name": "Golden Gate Bridge",
    "lat": "37.8197222200",
    "lng": "-122.4786111000",
    "category": "Civil"
  },
  {
    "name": "Grand Canyon",
    "lat": "36.1000000000",
    "lng": "-112.1000000000",
    "category": "Seven Natural Wonders of the World"
  },
  {
    "name": "Great Barrier Reef",
    "lat": "-17.7138888900",
    "lng": "147.7000000000",
    "category": "Seven Natural Wonders of the World"
  },
  {
    "name": "Great Pyramid of Giza",
    "lat": "29.9791666700",
    "lng": "31.1341666700",
    "category": "Ancient"
  },
  {
    "name": "Great Wall of China",
    "lat": "40.6769300000",
    "lng": "117.2319300000",
    "category": "Medieval"
  },
  {
    "name": "Guanabara Bay",
    "lat": "-21.2097222200",
    "lng": "-43.1555555600",
    "category": "Seven Natural Wonders of the World"
  },
  {
    "name": "Hagia Sophia",
    "lat": "41.0085480000",
    "lng": "28.9799380000",
    "category": "Medieval"
  },
  {
    "name": "Hanging Gardens of Babylon",
    "lat": "33.5355000000",
    "lng": "44.2475000000",
    "category": "Ancient"
  },
  {
    "name": "Hoover Dam",
    "lat": "36.0155555600",
    "lng": "-114.7377778000",
    "category": "Seven Wonders of the Industrial World"
  },
  {
    "name": "Itaipu Dam",
    "lat": "-24.5919444400",
    "lng": "-54.5888888900",
    "category": "Civil"
  },
  {
    "name": "Leaning Tower of Pisa",
    "lat": "43.7230555600",
    "lng": "10.3963888900",
    "category": "Medieval"
  },
  {
    "name": "Lighthouse of Alexandria",
    "lat": "31.2138888900",
    "lng": "29.8855555600",
    "category": "Ancient"
  },
  {
    "name": "London sewerage system",
    "lat": "51.5072222200",
    "lng": "-0.1058333333",
    "category": "Seven Wonders of the Industrial World"
  },
  {
    "name": "Maasai Mara",
    "lat": "-0.5100000000",
    "lng": "35.1438888900",
    "category": "USA Today's New Seven Wonders"
  },
  {
    "name": "Machu Picchu",
    "lat": "-12.8366666700",
    "lng": "-72.5455555600",
    "category": "New 7 Wonders Foundation"
  },
  {
    "name": "Mausoleum at Halicarnassus",
    "lat": "37.0377777800",
    "lng": "27.4241666700",
    "category": "Ancient"
  },
  {
    "name": "Maya civilization",
    "lat": "20.6827777800",
    "lng": "-88.5686111100",
    "category": "USA Today's New Seven Wonders"
  },
  {
    "name": "Mount Everest",
    "lat": "27.9880555600",
    "lng": "86.9252777800",
    "category": "Seven Natural Wonders of the World"
  },
  {
    "name": "Old City (Jerusalem)",
    "lat": "31.7766666700",
    "lng": "35.2341666700",
    "category": "USA Today's New Seven Wonders"
  },
  {
    "name": "Panama Canal",
    "lat": "9.0800000000",
    "lng": "-79.6800000000",
    "category": "Civil"
  },
  {
    "name": "Papahānaumokuākea Marine National Monument",
    "lat": "25.7000000000",
    "lng": "-171.7333333000",
    "category": "USA Today's New Seven Wonders"
  },
  {
    "name": "Paricutin",
    "lat": "19.4927777800",
    "lng": "-102.2508333000",
    "category": "Seven Natural Wonders of the World"
  },
  {
    "name": "Petra",
    "lat": "30.3286111100",
    "lng": "35.4419444400",
    "category": "New 7 Wonders Foundation"
  },
  {
    "name": "Porcelain Tower of Nanjing",
    "lat": "32.0802777800",
    "lng": "118.7300000000",
    "category": "Medieval"
  },
  {
    "name": "Potala Palace",
    "lat": "29.6577777800",
    "lng": "91.1169444400",
    "category": "USA Today's New Seven Wonders"
  },
  {
    "name": "SS Great Eastern",
    "lat": "51.4886111100",
    "lng": "-0.0055555556",
    "category": "Seven Wonders of the Industrial World"
  },
  {
    "name": "Statue of Zeus at Olympia",
    "lat": "37.6377777800",
    "lng": "21.6300000000",
    "category": "Ancient"
  },
  {
    "name": "Stonehenge",
    "lat": "51.1786111100",
    "lng": "-1.8261111110",
    "category": "Medieval"
  },
  {
    "name": "Taj Mahal",
    "lat": "27.1750000000",
    "lng": "78.0419444400",
    "category": "New 7 Wonders Foundation"
  },
  {
    "name": "Temple of Artemis at Ephesus",
    "lat": "37.9497222200",
    "lng": "27.3638888900",
    "category": "Ancient"
  },
  {
    "name": "Victoria Falls",
    "lat": "-16.0755555600",
    "lng": "25.8566666700",
    "category": "Seven Natural Wonders of the World"
  },
  {
    "name": "Zuiderzee Works",
    "lat": "51.6500000000",
    "lng": "3.7200000000",
    "category": "Civil"
  }
]
